{
"type": "FeatureCollection",
"name": "zerega-fleet-locations",
"crs": { "type": "name", "properties": { "name": "urn:ogc:def:crs:OGC:1.3:CRS84" } },
"features": [
{ "type": "Feature", "properties": { "type": "IBZ", "name": "IBZ", "fleet_type": "Multiple", "address": "1200 Zerega Ave, The Bronx, NY 10462", "gps_latitude": 40.83327169, "gps_longitude": -73.84314801, "borough": "Bronx", "subnetwork": "Southeast Bronx", "fleet_size": 450, "estimated_demand_mva": 28.23 }, "geometry": { "type": "Point", "coordinates": [ -73.84314801, 40.83327169 ] } },
{ "type": "Feature", "properties": { "type": "NYCDOE", "name": "RELIANT TRANSPORTATION, INC (B2321)", "fleet_type": "School Bus", "address": "1101 Zerega Ave, The Bronx, NY 10462", "gps_latitude": 40.83116108, "gps_longitude": -73.84463051, "borough": "Bronx", "subnetwork": "Southeast Bronx", "fleet_size": 292, "estimated_demand_mva": 5.48 }, "geometry": { "type": "Point", "coordinates": [ -73.84499406, 40.8308511664 ] } },
{ "type": "Feature", "properties": { "type": "NYCDOE", "name": "PIONEER TRANSPORTATION CORP", "fleet_type": "School Bus", "address": "751 Zerega Ave, The Bronx, NY 10473", "gps_latitude": 40.8234708, "gps_longitude": -73.84260206, "borough": "Bronx", "subnetwork": "Southeast Bronx", "fleet_size": 144, "estimated_demand_mva": 2.7 }, "geometry": { "type": "Point", "coordinates": [ -73.84360206, 40.8234708 ] } },
{ "type": "Feature", "properties": { "type": "NYCDOE", "name": "LITTLE RICHIE BUS SERVICE", "fleet_type": "School Bus", "address": "432 Zerega Ave, The Bronx, NY 10473", "gps_latitude": 40.81649133, "gps_longitude": -73.84433324, "borough": "Bronx", "subnetwork": "Southeast Bronx", "fleet_size": 142, "estimated_demand_mva": 2.66 }, "geometry": { "type": "Point", "coordinates": [ -73.84433324, 40.81649133 ] } },
{ "type": "Feature", "properties": { "type": "NYCDOE", "name": "LOGAN BUS COMPANY INC.", "fleet_type": "School Bus", "address": "426 Zerega Ave, The Bronx, NY 10473", "gps_latitude": 40.81559049, "gps_longitude": -73.84380292, "borough": "Bronx", "subnetwork": "Southeast Bronx", "fleet_size": 89, "estimated_demand_mva": 1.67 }, "geometry": { "type": "Point", "coordinates": [ -73.84380292, 40.81559049 ] } },
{ "type": "Feature", "properties": { "type": "NYCDOE", "name": "BORO TRANSIT, INC.", "fleet_type": "School Bus", "address": "691 Zerega Ave, The Bronx, NY 10473", "gps_latitude": 40.82091893, "gps_longitude": -73.84043128, "borough": "Bronx", "subnetwork": "Southeast Bronx", "fleet_size": 131, "estimated_demand_mva": 2.46 }, "geometry": { "type": "Point", "coordinates": [ -73.841428860, 40.8215258610 ] } },
{ "type": "Feature", "properties": { "type": "NYCDOE", "name": "BOBBY`S BUS CO. INC.", "fleet_type": "School Bus", "address": "432 Zerega Ave, The Bronx, NY 10473", "gps_latitude": 40.81671782, "gps_longitude": -73.84389242, "borough": "Bronx", "subnetwork": "Southeast Bronx", "fleet_size": 79, "estimated_demand_mva": 1.48 }, "geometry": { "type": "Point", "coordinates": [ -73.84389242, 40.81671782 ] } },
{ "type": "Feature", "properties": { "type": "NYCDOE", "name": "G.V.C. LTD. (B2192)", "fleet_type": "School Bus", "address": "1392 Commerce Ave Bronx NY, 10461", "gps_latitude": 40.83795553, "gps_longitude": -73.8409508, "borough": "Bronx", "subnetwork": "Southeast Bronx", "fleet_size": 137, "estimated_demand_mva": 2.57 }, "geometry": { "type": "Point", "coordinates": [ -73.8409508, 40.83795553 ] } },
{ "type": "Feature", "properties": { "type": "NYCDOE", "name": "ACADEMY EXPRESS LLC", "fleet_type": "School Bus", "address": "450 Zerega Ave", "gps_latitude": 40.81656582, "gps_longitude": -73.84369857, "borough": "Bronx", "subnetwork": "Southeast Bronx", "fleet_size": 124, "estimated_demand_mva": 2.33 }, "geometry": { "type": "Point", "coordinates": [ -73.8448326501, 40.815011497368 ] } },
{ "type": "Feature", "properties": { "type": "DSNY", "name": "DSNY Bronx 9 & 10", "fleet_type": "Public Refuse Truck", "address": "850 Zerega Ave.", "gps_latitude": 40.82540462, "gps_longitude": -73.84224144, "borough": "Bronx", "subnetwork": "Southeast Bronx", "fleet_size": 42, "estimated_demand_mva": 4.2 }, "geometry": { "type": "Point", "coordinates": [ -73.84224144, 40.82540462 ] } },
{ "type": "Feature", "properties": { "type": "DSNY", "name": "DSNY Bronx 11", "fleet_type": "Public Refuse Truck", "address": "800 Zerega Ave.", "gps_latitude": 40.82463974, "gps_longitude": -73.84238862, "borough": "Bronx", "subnetwork": "Southeast Bronx", "fleet_size": 42, "estimated_demand_mva": 1.4 }, "geometry": { "type": "Point", "coordinates": [ -73.84238862, 40.82463974 ] } },
{ "type": "Feature", "properties": { "type": "MTA", "name": "Zerega Bus Maintenance and Training Facility", "fleet_type": "Bus", "address": "750 Zerega Ave", "gps_latitude": 40.82293995, "gps_longitude": -73.84140952, "borough": "Bronx", "subnetwork": "Southeast Bronx", "fleet_size": 60, "estimated_demand_mva": 1.0 }, "geometry": { "type": "Point", "coordinates": [ -73.84140952, 40.82293995 ] } },
{ "type": "Feature", "properties": { "type": "NYDOE", "name": "Consolidated Bus Transit", "fleet_type": "School Bus", "address": "2350 Hermany Ave, Bronx, NY 10473", "gps_latitude": 40.82532334, "gps_longitude": -73.84426802, "borough": "Bronx", "subnetwork": "Southeast Bronx", "fleet_size": 300, "estimated_demand_mva": 5.63 }, "geometry": { "type": "Point", "coordinates": [ -73.84426802, 40.82532334 ] } },
{ "type": "Feature", "properties": { "type": "FedEx", "name": "FedEx Ground", "fleet_type": "Delivery vans\/trucks", "address": "635 Zerega Ave, Bronx, NY 10473", "gps_latitude": 40.82001358, "gps_longitude": -73.84412854, "borough": "Bronx", "subnetwork": "Southeast Bronx", "fleet_size": 50, "estimated_demand_mva": 0.42 }, "geometry": { "type": "Point", "coordinates": [ -73.84412854, 40.82001358 ] } },
{ "type": "Feature", "properties": { "type": "DSNY", "name": "DSNY", "fleet_type": "Public Refuse Truck", "address": "400 Zerega", "gps_latitude": 40.8183576, "gps_longitude": -73.84268319, "borough": "Bronx", "subnetwork": "Southeast Bronx", "fleet_size": 42, "estimated_demand_mva": 1.4 }, "geometry": { "type": "Point", "coordinates": [ -73.84268319, 40.8183576 ] } },
{ "type": "Feature", "properties": { "type": "Verizon", "name": "Verizon", "fleet_type": "Utility Truck", "address": "500 Zerega", "gps_latitude": 40.81754448, "gps_longitude": -73.84342243, "borough": "Bronx", "subnetwork": "Southeast Bronx", "fleet_size": 40, "estimated_demand_mva": 0.33 }, "geometry": { "type": "Point", "coordinates": [ -73.84342243, 40.81754448 ] } }
]
}
